[  
   {  
      "name":"Alabama",
      "abbr":"AL",
      "lat":32.7794,
      "lon":-86.8287,
      "zoom":5
   },
   {  
      "name":"Alaska",
      "abbr":"AK",
      "lat":64.0685,
      "lon":-152.2782,
      "zoom":3
   },
   {  
      "name":"Arizona",
      "abbr":"AZ",
      "lat":34.2744,
      "lon":-111.6602,
      "zoom":5
   },
   {  
      "name":"Arkansas",
      "abbr":"AR",
      "lat":34.8938,
      "lon":-92.4426,
      "zoom":5
   },
   {  
      "name":"California",
      "abbr":"CA",
      "lat":37.1841,
      "lon":-119.4696,
      "zoom":5
   },
   {  
      "name":"Colorado",
      "abbr":"CO",
      "lat":38.9972,
      "lon":-105.5478,
      "zoom":5
   },
   {  
      "name":"Connecticut",
      "abbr":"CT",
      "lat":41.6219,
      "lon":-72.7273,
      "zoom":7
   },
   {  
      "name":"Delaware",
      "abbr":"DE",
      "lat":38.9896,
      "lon":-75.505,
      "zoom":7
   },
   {  
      "name":"Washington DC",
      "abbr":"DC",
      "lat":38.9101,
      "lon":-77.0147,
      "zoom":7
   },
   {  
      "name":"Florida",
      "abbr":"FL",
      "lat":28.6305,
      "lon":-82.4497,
      "zoom":5
   },
   {  
      "name":"Georgia",
      "abbr":"GA",
      "lat":32.6415,
      "lon":-83.4426,
      "zoom":5
   },
   {  
      "name":"Hawaii",
      "abbr":"HI",
      "lat":20.2927,
      "lon":-156.3737,
      "zoom":7
   },
   {  
      "name":"Idaho",
      "abbr":"ID",
      "lat":44.3509,
      "lon":-114.613,
      "zoom":5
   },
   {  
      "name":"Illinois",
      "abbr":"IL",
      "lat":40.0417,
      "lon":-89.1965,
      "zoom":5
   },
   {  
      "name":"Indiana",
      "abbr":"IN",
      "lat":39.8942,
      "lon":-86.2816,
      "zoom":5
   },
   {  
      "name":"Iowa",
      "abbr":"IA",
      "lat":42.0751,
      "lon":-93.496,
      "zoom":5
   },
   {  
      "name":"Kansas",
      "abbr":"KS",
      "lat":38.4937,
      "lon":-98.3804,
      "zoom":5
   },
   {  
      "name":"Kentucky",
      "abbr":"KY",
      "lat":37.5347,
      "lon":-85.3021,
      "zoom":5
   },
   {  
      "name":"Louisiana",
      "abbr":"LA",
      "lat":31.0689,
      "lon":-91.9968,
      "zoom":5
   },
   {  
      "name":"Maine",
      "abbr":"ME",
      "lat":45.3695,
      "lon":-69.2428,
      "zoom":6
   },
   {  
      "name":"Maryland",
      "abbr":"MD",
      "lat":39.055,
      "lon":-76.7909,
      "zoom":7
   },
   {  
      "name":"Massachusetts",
      "abbr":"MA",
      "lat":42.2596,
      "lon":-71.8083,
      "zoom":6
   },
   {  
      "name":"Michigan",
      "abbr":"MI",
      "lat":44.3467,
      "lon":-85.4102,
      "zoom":5
   },
   {  
      "name":"Minnesota",
      "abbr":"MN",
      "lat":46.2807,
      "lon":-94.3053,
      "zoom":5
   },
   {  
      "name":"Mississippi",
      "abbr":"MS",
      "lat":32.7364,
      "lon":-89.6678,
      "zoom":5
   },
   {  
      "name":"Missouri",
      "abbr":"MO",
      "lat":38.3566,
      "lon":-92.458,
      "zoom":5
   },
   {  
      "name":"Montana",
      "abbr":"MT",
      "lat":47.0527,
      "lon":-109.6333,
      "zoom":5
   },
   {  
      "name":"Nebraska",
      "abbr":"NE",
      "lat":41.5378,
      "lon":-99.7951,
      "zoom":5
   },
   {  
      "name":"Nevada",
      "abbr":"NV",
      "lat":39.3289,
      "lon":-116.6312,
      "zoom":5
   },
   {  
      "name":"New Hampshire",
      "abbr":"NH",
      "lat":43.6805,
      "lon":-71.5811,
      "zoom":6
   },
   {  
      "name":"New Jersey",
      "abbr":"NJ",
      "lat":40.1907,
      "lon":-74.6728,
      "zoom":5
   },
   {  
      "name":"New Mexico",
      "abbr":"NM",
      "lat":34.4071,
      "lon":-106.1126,
      "zoom":5
   },
   {  
      "name":"New York",
      "abbr":"NY",
      "lat":42.9538,
      "lon":-75.5268,
      "zoom":5
   },
   {  
      "name":"North Carolina",
      "abbr":"NC",
      "lat":35.5557,
      "lon":-79.3877,
      "zoom":5
   },
   {  
      "name":"North Dakota",
      "abbr":"ND",
      "lat":47.4501,
      "lon":-100.4659,
      "zoom":5
   },
   {  
      "name":"Ohio",
      "abbr":"OH",
      "lat":40.2862,
      "lon":-82.7937,
      "zoom":5
   },
   {  
      "name":"Oklahoma",
      "abbr":"OK",
      "lat":35.5889,
      "lon":-97.4943,
      "zoom":5
   },
   {  
      "name":"Oregon",
      "abbr":"OR",
      "lat":43.9336,
      "lon":-120.5583,
      "zoom":5
   },
   {  
      "name":"Pennsylvania",
      "abbr":"PA",
      "lat":40.8781,
      "lon":-77.7996,
      "zoom":5
   },
   {  
      "name":"Rhode Island",
      "abbr":"RI",
      "lat":41.6762,
      "lon":-71.5562,
      "zoom":7
   },
   {  
      "name":"South Carolina",
      "abbr":"SC",
      "lat":33.9169,
      "lon":-80.8964,
      "zoom":5
   },
   {  
      "name":"South Dakota",
      "abbr":"SD",
      "lat":44.4443,
      "lon":-100.2263,
      "zoom":5
   },
   {  
      "name":"Tennessee",
      "abbr":"TN",
      "lat":35.858,
      "lon":-86.3505,
      "zoom":5
   },
   {  
      "name":"Texas",
      "abbr":"TX",
      "lat":31.4757,
      "lon":-99.3312,
      "zoom":5
   },
   {  
      "name":"Utah",
      "abbr":"UT",
      "lat":39.3055,
      "lon":-111.6703,
      "zoom":5
   },
   {  
      "name":"Vermont",
      "abbr":"VT",
      "lat":44.0687,
      "lon":-72.6658,
      "zoom":6
   },
   {  
      "name":"Virginia",
      "abbr":"VA",
      "lat":37.5215,
      "lon":-78.8537,
      "zoom":5
   },
   {  
      "name":"Washington",
      "abbr":"WA",
      "lat":47.3826,
      "lon":-120.4472,
      "zoom":5
   },
   {  
      "name":"West Virginia",
      "abbr":"WV",
      "lat":38.6409,
      "lon":-80.6227,
      "zoom":5
   },
   {  
      "name":"Wisconsin",
      "abbr":"WI",
      "lat":44.6243,
      "lon":-89.9941,
      "zoom":5
   },
   {  
      "name":"Wyoming",
      "abbr":"WY",
      "lat":42.9957,
      "lon":-107.5512,
      "zoom":5
   }
]